"","Incident.Date","State","City.Or.County","Address","X..Killed","X..Injured","Operations","fullad","long","lat"
"1","31-Dec-16","Georgia","Lenox (El Dorado)","27 Briarwood Ct",2,2,"N/A","27 Briarwood Ct ,  Lenox (El Dorado) ,  Georgia","-83.4983023","31.354947"
"2","31-Dec-16","Texas","Houston","3704 Fannin Street",1,3,"N/A","3704 Fannin Street ,  Houston ,  Texas","NA","NA"
"3","30-Dec-16","Ohio","Mansfield","3230 Possum Run Rd",0,5,"N/A","3230 Possum Run Rd ,  Mansfield ,  Ohio","NA","NA"
"4","30-Dec-16","Connecticut","Wallingford","95 S Turnpike Road",2,2,"N/A","95 S Turnpike Road ,  Wallingford ,  Connecticut","-72.8451887","41.4494322"
"5","28-Dec-16","Georgia","Columbus","2914 10th Street",1,4,"N/A","2914 10th Street ,  Columbus ,  Georgia","NA","NA"
"6","25-Dec-16","Alabama","Ozark","858 US-231",0,4,"N/A","858 US-231 ,  Ozark ,  Alabama","-85.6612494","31.449915"
"7","25-Dec-16","Illinois","Chicago","8600 block of South Maryland Avenue",3,4,"N/A","8600 block of South Maryland Avenue ,  Chicago ,  Illinois","-87.6036534","41.7383379"
"8","25-Dec-16","New York","Mount Vernon","4 North 3rd Avenue",1,5,"N/A","4 North 3rd Avenue ,  Mount Vernon ,  New York","-73.8367044","40.9124997"
"9","24-Dec-16","North Carolina","Madison","490 K Ford Rd",0,7,"N/A","490 K Ford Rd ,  Madison ,  North Carolina","-80.007822","36.389223"
"10","24-Dec-16","North Carolina","Wilson","2241 Banks Lane East",4,0,"N/A","2241 Banks Lane East ,  Wilson ,  North Carolina","-77.8730269","35.7313199"
"11","23-Dec-16","Alabama","Birmingham","3813 Richard Arrington Boulevard North",1,3,"N/A","3813 Richard Arrington Boulevard North ,  Birmingham ,  Alabama","-86.7825393","33.5383163"
"12","23-Dec-16","Illinois","Chicago","4900 block of West Hubbard",0,4,"N/A","4900 block of West Hubbard ,  Chicago ,  Illinois","NA","NA"
"13","17-Dec-16","North Carolina","Charlotte","4115 N. Tryon Street",0,4,"N/A","4115 N. Tryon Street ,  Charlotte ,  North Carolina","-80.7965197","35.2579771"
"14","17-Dec-16","Illinois","Chicago (Roseland)","100 block of West 105th Street",5,0,"N/A","100 block of West 105th Street ,  Chicago (Roseland) ,  Illinois","-87.6259341","41.7037173"
"15","16-Dec-16","Illinois","Chicago","4300 block of South Rockwell",2,2,"N/A","4300 block of South Rockwell ,  Chicago ,  Illinois","-87.6895193","41.81559"
"16","16-Dec-16","Illinois","Chicago","13th and South Kedzie",0,4,"N/A","13th and South Kedzie ,  Chicago ,  Illinois","NA","NA"
"17","12-Dec-16","California","Sacramento","4800 block of Myrtle Avenue",1,3,"N/A","4800 block of Myrtle Avenue ,  Sacramento ,  California","NA","NA"
"18","11-Dec-16","New York","Brooklyn","192 Knickerbocker Ave",0,4,"N/A","192 Knickerbocker Ave ,  Brooklyn ,  New York","-73.9271874","40.7035537"
"19","11-Dec-16","Florida","Orlando (Pine Hills)","4305 N Pine Hills Rd",1,4,"N/A","4305 N Pine Hills Rd ,  Orlando (Pine Hills) ,  Florida","NA","NA"
"20","11-Dec-16","Maryland","Baltimore","3916 South Hanover Street",0,5,"N/A","3916 South Hanover Street ,  Baltimore ,  Maryland","-76.6117114","39.2349403"
"21","11-Dec-16","North Carolina","Rocky Mount","1200 block of East Highland Ave",0,4,"N/A","1200 block of East Highland Ave ,  Rocky Mount ,  North Carolina","-77.779753","35.9468557"
"22","9-Dec-16","Texas","Channelview","15300 block of Market",4,0,"N/A","15300 block of Market ,  Channelview ,  Texas","-95.1391912","29.7716504"
"23","9-Dec-16","California","Fresno","842 Fresno Street",0,4,"N/A","842 Fresno Street ,  Fresno ,  California","NA","NA"
"24","5-Dec-16","New Mexico","Albuquerque","1532 Stagecoach Lane",4,1,"N/A","1532 Stagecoach Lane ,  Albuquerque ,  New Mexico","-106.4909978","35.0482007"
"25","3-Dec-16","California","Los Angeles","91st Street and Western Avenue",0,6,"N/A","91st Street and Western Avenue ,  Los Angeles ,  California","-118.3090184","33.9545261"
"26","2-Dec-16","New Jersey","Bloomfield","3 1st Ave",0,6,"N/A","3 1st Ave ,  Bloomfield ,  New Jersey","-74.1887489","40.7700791"
"27","1-Dec-16","California","Clearlake Oaks","N/A",1,3,"N/A","N/A ,  Clearlake Oaks ,  California","-122.6719304","39.0262841"
"28","30-Nov-16","Maryland","Baltimore","2901 Garrison Blvd",2,4,"N/A","2901 Garrison Blvd ,  Baltimore ,  Maryland","-76.6770866","39.3208039"
"29","28-Nov-16","Texas","Mission (Palmview)","1840 West Palma Vista Drive",1,3,"N/A","1840 West Palma Vista Drive ,  Mission (Palmview) ,  Texas","NA","NA"
"30","28-Nov-16","California","Wilmington","1067 McDonald Avenue",0,4,"N/A","1067 McDonald Avenue ,  Wilmington ,  California","-118.2715054","33.7843593"
"31","28-Nov-16","California","San Pedro","300 block of West 2nd Street",0,4,"N/A","300 block of West 2nd Street ,  San Pedro ,  California","-118.2835567","33.7423786"
"32","27-Nov-16","Louisiana","New Orleans","100 block of Bourbon Street",1,9,"N/A","100 block of Bourbon Street ,  New Orleans ,  Louisiana","-90.0691878","29.9542063"
"33","27-Nov-16","Missouri","Kansas City","Gregory and Prospect",0,7,"N/A","Gregory and Prospect ,  Kansas City ,  Missouri","-94.5568984","38.9980331"
"34","26-Nov-16","Illinois","Chicago","8800 block of S Exchange Ave",1,5,"N/A","8800 block of S Exchange Ave ,  Chicago ,  Illinois","NA","NA"
"35","25-Nov-16","Louisiana","New Orleans","Magnolia Street and Felicity Street",0,4,"N/A","Magnolia Street and Felicity Street ,  New Orleans ,  Louisiana","-90.08645","29.944205"
"36","24-Nov-16","Kentucky","Louisville","4501 W Broadway",2,4,"N/A","4501 W Broadway ,  Louisville ,  Kentucky","-85.8277314","38.2506529"
"37","24-Nov-16","New York","Albany","77 Central Ave",1,3,"N/A","77 Central Ave ,  Albany ,  New York","-73.7658734","42.6591954"
"38","23-Nov-16","Mississippi","Olive Branch","928 Cross Road",0,4,"N/A","928 Cross Road ,  Olive Branch ,  Mississippi","-89.7723579","34.989794"
"39","22-Nov-16","Florida","Clewiston","1068 Harlem Academy Avenue",1,4,"N/A","1068 Harlem Academy Avenue ,  Clewiston ,  Florida","-80.9531053","26.7371249"
"40","18-Nov-16","Illinois","Chicago","5000 block of West Wabansia",0,4,"N/A","5000 block of West Wabansia ,  Chicago ,  Illinois","-87.7512077","41.9113925"
"41","17-Nov-16","Tennessee","Dyersburg","160 Longfellow",1,7,"N/A","160 Longfellow ,  Dyersburg ,  Tennessee","-89.364456","36.030066"
"42","13-Nov-16","Florida","Jacksonville","5105 Cleveland Rd",3,2,"N/A","5105 Cleveland Rd ,  Jacksonville ,  Florida","-81.7059751","30.364945"
"43","13-Nov-16","Texas","San Antonio","8000 Midcrown",0,4,"N/A","8000 Midcrown ,  San Antonio ,  Texas","-98.3800289","29.5074775"
"44","13-Nov-16","California","San Diego","3800 block of Marlborough Avenue",3,2,"N/A","3800 block of Marlborough Avenue ,  San Diego ,  California","NA","NA"
"45","13-Nov-16","Florida","Orlando","Conley Street and South Ivey Lane",0,4,"N/A","Conley Street and South Ivey Lane ,  Orlando ,  Florida","-81.4343377","28.5325363"
"46","12-Nov-16","California","Sacramento","8600 block of Ardith Drive",1,5,"N/A","8600 block of Ardith Drive ,  Sacramento ,  California","-121.3840833","38.456391"
"47","12-Nov-16","Missouri","Kansas City","21st St and Cleveland Ave",1,3,"N/A","21st St and Cleveland Ave ,  Kansas City ,  Missouri","-94.5382339","39.0862237"
"48","12-Nov-16","Connecticut","Bridgeport","2500 Park Avenue",0,5,"N/A","2500 Park Avenue ,  Bridgeport ,  Connecticut","-73.2138808","41.1917985"
"49","11-Nov-16","Texas","Houston","7705 Channelside Street",0,4,"N/A","7705 Channelside Street ,  Houston ,  Texas","-95.2830971","29.7172188"
"50","10-Nov-16","Texas","Houston","6610 S Sam Houston Pkwy W",1,3,"N/A","6610 S Sam Houston Pkwy W ,  Houston ,  Texas","NA","NA"
"51","9-Nov-16","Washington","Seattle","1524 3rd Ave",0,5,"N/A","1524 3rd Ave ,  Seattle ,  Washington","-122.3380822","47.6104626"
"52","9-Nov-16","Illinois","Chicago","3400 block of W Monroe",1,3,"N/A","3400 block of W Monroe ,  Chicago ,  Illinois","-87.7109924","41.8795914"
"53","9-Nov-16","Tennessee","Memphis","1800 block of East Brooks Road",0,4,"N/A","1800 block of East Brooks Road ,  Memphis ,  Tennessee","-90.003693","35.0609342"
"54","5-Nov-16","Florida","Fort Lauderdale (Lauderhill)","3135 West Broward Boulevard",1,3,"N/A","3135 West Broward Boulevard ,  Fort Lauderdale (Lauderhill) ,  Florida","-80.1869509","26.121757"
"55","5-Nov-16","Texas","San Antonio","10726 Perrin Beitel Rd",0,4,"N/A","10726 Perrin Beitel Rd ,  San Antonio ,  Texas","NA","NA"
"56","5-Nov-16","South Carolina","Myrtle Beach","803 Main St",0,5,"N/A","803 Main St ,  Myrtle Beach ,  South Carolina","-78.8842844","33.6935945"
"57","5-Nov-16","California","Oakland","420 14th Street",0,8,"N/A","420 14th Street ,  Oakland ,  California","-122.2703069","37.8042354"
"58","5-Nov-16","Illinois","Chicago","4800 block of North Winthrop",0,5,"N/A","4800 block of North Winthrop ,  Chicago ,  Illinois","-87.658036","41.969431"
"59","4-Nov-16","Pennsylvania","Philadelphia","5451 Springfield Ave",0,4,"N/A","5451 Springfield Ave ,  Philadelphia ,  Pennsylvania","-75.2255151","39.9399987"
"60","3-Nov-16","Illinois","Chicago","8000 block of S Shore Dr",2,2,"N/A","8000 block of S Shore Dr ,  Chicago ,  Illinois","-87.5804185","41.7935489"
"61","3-Nov-16","New Jersey","Orange","234 Cleveland Street",2,2,"N/A","234 Cleveland Street ,  Orange ,  New Jersey","-74.2270347","40.7785985"
"62","2-Nov-16","Arkansas","Little Rock","2111 Bragg Street",1,4,"N/A","2111 Bragg Street ,  Little Rock ,  Arkansas","-92.265982","34.728036"
"63","1-Nov-16","Tennessee","Memphis","5200 block of Zodiac Rd",1,5,"N/A","5200 block of Zodiac Rd ,  Memphis ,  Tennessee","-89.9592378","35.0062526"
"64","31-Oct-16","Louisiana","Shreveport","700 Block of W 68th St",0,4,"N/A","700 Block of W 68th St ,  Shreveport ,  Louisiana","-93.7694936","32.4437429"
"65","30-Oct-16","Ohio","Toledo","742 Junction Ave",0,4,"N/A","742 Junction Ave ,  Toledo ,  Ohio","-83.5768514","41.6481091"
"66","30-Oct-16","New York","New York (Manhattan)","135 Ridge Street",0,4,"N/A","135 Ridge Street ,  New York (Manhattan) ,  New York","-73.9830138","40.7195832"
"67","30-Oct-16","New York","Newburgh","119 First Street",2,5,"N/A","119 First Street ,  Newburgh ,  New York","-74.0104532","41.5020104"
"68","30-Oct-16","Maryland","Capitol Heights","6860 Walker Mill Road",3,3,"N/A","6860 Walker Mill Road ,  Capitol Heights ,  Maryland","-76.8924201","38.8717675"
"69","30-Oct-16","Texas","San Antonio","2900 block of Aspen Meadow",0,5,"N/A","2900 block of Aspen Meadow ,  San Antonio ,  Texas","-98.60694","29.4646285"
"70","29-Oct-16","Ohio","Dayton","2010 Cornell Ridge Dr",1,3,"N/A","2010 Cornell Ridge Dr ,  Dayton ,  Ohio","-84.2515891","39.7769607"
"71","29-Oct-16","California","Los Angeles","1600 block of Century Boulevard",0,5,"N/A","1600 block of Century Boulevard ,  Los Angeles ,  California","-118.3048881","33.9454733"
"72","29-Oct-16","California","Riverside","3500 block of Madison Street",0,4,"N/A","3500 block of Madison Street ,  Riverside ,  California","NA","NA"
"73","28-Oct-16","Mississippi","Jackson","200 block of Lorenz Blvd",0,6,"N/A","200 block of Lorenz Blvd ,  Jackson ,  Mississippi","-90.1820414","32.3336946"
"74","28-Oct-16","Florida","Miami Gardens","Northwest 173rd Terrace and 27th Avenue",0,4,"N/A","Northwest 173rd Terrace and 27th Avenue ,  Miami Gardens ,  Florida","-80.2448231","25.9322146"
"75","27-Oct-16","Georgia","Jackson","600 block of Moccasin Gap Road",4,0,"N/A","600 block of Moccasin Gap Road ,  Jackson ,  Georgia","-83.9905366","33.3840103"
"76","25-Oct-16","Ohio","Dayton","3300 block of Riverside Dr",1,3,"N/A","3300 block of Riverside Dr ,  Dayton ,  Ohio","-84.2076175","39.7995186"
"77","25-Oct-16","Virginia","Roanoke","830 Campbell Avenue Southeast",2,3,"N/A","830 Campbell Avenue Southeast ,  Roanoke ,  Virginia","-79.9309748","37.2730757"
"78","23-Oct-16","Oklahoma","Wellston","Highway 66 and N 3310 Rd",1,5,"N/A","Highway 66 and N 3310 Rd ,  Wellston ,  Oklahoma","NA","NA"
"79","22-Oct-16","California","Oakland","77th and Bancroft Avenues",0,7,"N/A","77th and Bancroft Avenues ,  Oakland ,  California","-122.1745677","37.7639097"
"80","18-Oct-16","California","San Francisco","325 La Grande Ave",0,4,"N/A","325 La Grande Ave ,  San Francisco ,  California","-122.4252243","37.7194482"
"81","17-Oct-16","Illinois","Chicago (Englewood)","6700 block of South Winchester",1,4,"N/A","6700 block of South Winchester ,  Chicago (Englewood) ,  Illinois","-87.6725184","41.7720758"
"82","15-Oct-16","Alabama","Mobile","1800 block of St Stephens Road",0,5,"N/A","1800 block of St Stephens Road ,  Mobile ,  Alabama","-88.0786189","30.703009"
"83","15-Oct-16","Illinois","Rockford","7801 East State St",1,5,"N/A","7801 East State St ,  Rockford ,  Illinois","-88.9627801","42.2699348"
"84","15-Oct-16","California","Los Angeles","2918 Rimpau Blvd",4,11,"N/A","2918 Rimpau Blvd ,  Los Angeles ,  California","NA","NA"
"85","14-Oct-16","Illinois","Chicago","3300 block of W Maypole Ave",1,6,"N/A","3300 block of W Maypole Ave ,  Chicago ,  Illinois","-87.7088686","41.8835815"
"86","13-Oct-16","Illinois","Chicago","2700 block of West Lexington",0,4,"N/A","2700 block of West Lexington ,  Chicago ,  Illinois","-87.69373","41.872262"
"87","9-Oct-16","Michigan","Grand Rapids","1850 28th Street SE",1,8,"N/A","1850 28th Street SE ,  Grand Rapids ,  Michigan","-85.62301","42.9121115"
"88","9-Oct-16","California","Sacramento","1696 Arden Way",1,3,"N/A","1696 Arden Way ,  Sacramento ,  California","-121.4275994","38.597953"
"89","8-Oct-16","New York","Brooklyn","7301 3rd Ave",0,4,"N/A","7301 3rd Ave ,  Brooklyn ,  New York","-74.026982","40.632653"
"90","4-Oct-16","Louisiana","New Orleans","3727 Ulloa Street",3,2,"N/A","3727 Ulloa Street ,  New Orleans ,  Louisiana","-90.1018231","29.9673972"
"91","3-Oct-16","Minnesota","Minneapolis","Fourth St and Hennepin Ave",0,4,"N/A","Fourth St and Hennepin Ave ,  Minneapolis ,  Minnesota","-93.271348","44.9804419"
"92","2-Oct-16","Texas","San Antonio","2600 South Flores Street",1,4,"N/A","2600 South Flores Street ,  San Antonio ,  Texas","-98.5042924","29.3984415"
"93","1-Oct-16","Illinois","Pembroke Township","17250E Road",4,0,"N/A","17250E Road ,  Pembroke Township ,  Illinois","NA","NA"
"94","1-Oct-16","California","Fresno","3200 block of East Clay Avenue",0,4,"N/A","3200 block of East Clay Avenue ,  Fresno ,  California","-119.7710645","36.7565708"
"95","29-Sep-16","California","San Francisco","400 block of Ellis Street",1,3,"N/A","400 block of Ellis Street ,  San Francisco ,  California","-122.412823","37.7848729"
"96","26-Sep-16","North Carolina","Winston Salem (Winston-salem)","100 block of 5 Royales Dr",0,4,"N/A","100 block of 5 Royales Dr ,  Winston Salem (Winston-salem) ,  North Carolina","-80.245255","36.1144304"
"97","26-Sep-16","Texas","Humble","21219 Grand Linden Ct",0,4,"N/A","21219 Grand Linden Ct ,  Humble ,  Texas","-95.3123538","30.0216391"
"98","26-Sep-16","Texas","Houston","5450 Weslayan St",1,6,"N/A","5450 Weslayan St ,  Houston ,  Texas","-95.4421156","29.7235827"
"99","25-Sep-16","Illinois","Champaign","300 block of E. Green St",1,3,"N/A","300 block of E. Green St ,  Champaign ,  Illinois","-88.2353849","40.110245"
"100","24-Sep-16","Maryland","Baltimore","Greenmount Avenue and Preston Street",0,8,"N/A","Greenmount Avenue and Preston Street ,  Baltimore ,  Maryland","-76.6081873","39.3048255"
"101","23-Sep-16","Washington","Burlington","201 Cascade Mall Dr",5,0,"N/A","201 Cascade Mall Dr ,  Burlington ,  Washington","-122.338276","48.4631672"
"102","18-Sep-16","Pennsylvania","Philadelphia","3001 Castor Avenue",0,4,"N/A","3001 Castor Avenue ,  Philadelphia ,  Pennsylvania","-75.0859131","39.9857442"
"103","18-Sep-16","Virginia","Lynchburg","421 Rivermont Ave",1,3,"N/A","421 Rivermont Ave ,  Lynchburg ,  Virginia","NA","NA"
"104","18-Sep-16","Pennsylvania","Pittsburgh","1700 block of Brighton Place",0,4,"N/A","1700 block of Brighton Place ,  Pittsburgh ,  Pennsylvania","-80.0170113","40.458417"
"105","17-Sep-16","Florida","Miami","20582 SW 119th Ave",0,6,"N/A","20582 SW 119th Ave ,  Miami ,  Florida","-80.3853718","25.5755251"
"106","17-Sep-16","Florida","Orlando","3918 Columbia St",1,6,"N/A","3918 Columbia St ,  Orlando ,  Florida","-81.424421","28.526767"
"107","17-Sep-16","Indiana","Indianapolis","2016 West 76th Street",2,2,"N/A","2016 West 76th Street ,  Indianapolis ,  Indiana","NA","NA"
"108","17-Sep-16","District of Columbia","Washington","2600 block of Birney Place SE",2,7,"N/A","2600 block of Birney Place SE ,  Washington ,  District of Columbia","NA","NA"
"109","16-Sep-16","Pennsylvania","Philadelphia","5100 block of Sansom St",2,5,"N/A","5100 block of Sansom St ,  Philadelphia ,  Pennsylvania","-75.2234002","39.9574785"
"110","16-Sep-16","California","Los Angeles (Hollywood)","555 N Heliotrope Dr",2,2,"N/A","555 N Heliotrope Dr ,  Los Angeles (Hollywood) ,  California","-118.295644","34.0806533"
"111","14-Sep-16","Texas","Humble","16000 block of Saybrook",1,3,"N/A","16000 block of Saybrook ,  Humble ,  Texas","-95.3022945","29.958559"
"112","13-Sep-16","Indiana","Fort Wayne","1723 E Wayne St",3,2,"N/A","1723 E Wayne St ,  Fort Wayne ,  Indiana","-85.1149066","41.0803408"
"113","11-Sep-16","Indiana","Fort Wayne","3006 Holton Avenue",3,1,"N/A","3006 Holton Avenue ,  Fort Wayne ,  Indiana","-85.1187504","41.0574142"
"114","11-Sep-16","Louisiana","New Orleans","2349 S Claiborne Ave",1,5,"N/A","2349 S Claiborne Ave ,  New Orleans ,  Louisiana","NA","NA"
"115","11-Sep-16","New Jersey","Jersey City","87 Van Wagenen Ave",1,3,"N/A","87 Van Wagenen Ave ,  Jersey City ,  New Jersey","-74.070232","40.7332731"
"116","11-Sep-16","Missouri","Kansas City","500 block of Westport Rd",0,6,"N/A","500 block of Westport Rd ,  Kansas City ,  Missouri","NA","NA"
"117","11-Sep-16","Michigan","Saginaw","2207 Pierce Road",0,5,"N/A","2207 Pierce Road ,  Saginaw ,  Michigan","-83.959673","43.506883"
"118","11-Sep-16","North Carolina","New Bern","1100 block of Highway 70",0,5,"N/A","1100 block of Highway 70 ,  New Bern ,  North Carolina","-77.029764","35.0799924"
"119","10-Sep-16","Florida","Miami","3451 Northwest 36 Street",1,3,"N/A","3451 Northwest 36 Street ,  Miami ,  Florida","-80.2522354","25.8089317"
"120","8-Sep-16","Texas","Del Valle","8330 Linden Rd",4,0,"N/A","8330 Linden Rd ,  Del Valle ,  Texas","NA","NA"
"121","8-Sep-16","Arkansas","Hot Springs National Park (Hot Springs)","300 block of Lacey St",1,4,"N/A","300 block of Lacey St ,  Hot Springs National Park (Hot Springs) ,  Arkansas","-93.0755951","34.4989672"
"122","5-Sep-16","Illinois","Chicago","2700 block of W Lexington Ave",2,3,"N/A","2700 block of W Lexington Ave ,  Chicago ,  Illinois","-87.69373","41.872262"
"123","5-Sep-16","Pennsylvania","Reading","600 block of Moss Street",0,4,"N/A","600 block of Moss Street ,  Reading ,  Pennsylvania","-75.9188553","40.3443675"
"124","4-Sep-16","Virginia","Roanoke","1020 Orange Ave NE",1,10,"N/A","1020 Orange Ave NE ,  Roanoke ,  Virginia","-79.9227426","37.2837937"
"125","3-Sep-16","Illinois","Chicago","100 block of North Seeley Avenue",0,4,"N/A","100 block of North Seeley Avenue ,  Chicago ,  Illinois","-87.6804572","41.9705491"
"126","3-Sep-16","North Carolina","Wilmington","600 block of North 30th Street",1,3,"N/A","600 block of North 30th Street ,  Wilmington ,  North Carolina","-77.9072744","34.2461886"
"127","30-Aug-16","Georgia","Atlanta","400 Merritts Avenue NE",0,4,"N/A","400 Merritts Avenue NE ,  Atlanta ,  Georgia","-84.3745349","33.7690479"
"128","30-Aug-16","Illinois","Chicago (Englewood)","6800 block of South Ashland",0,4,"N/A","6800 block of South Ashland ,  Chicago (Englewood) ,  Illinois","-87.664355","41.7698662"
"129","29-Aug-16","New Jersey","Egg Harbor City","907 White Horse Pike",1,5,"N/A","907 White Horse Pike ,  Egg Harbor City ,  New Jersey","-74.6437487","39.5265446"
"130","29-Aug-16","California","Temecula","41450 Cruz Way",5,0,"N/A","41450 Cruz Way ,  Temecula ,  California","-117.031788","33.5194576"
"131","28-Aug-16","Texas","Lubbock","2200 block of 17th St",0,6,"N/A","2200 block of 17th St ,  Lubbock ,  Texas","-101.8641012","33.5798765"
"132","28-Aug-16","New York","Bronx","514 E 156th St",0,4,"N/A","514 E 156th St ,  Bronx ,  New York","-73.9112157","40.819209"
"133","28-Aug-16","Missouri","Saint Louis","S Grand Blvd and Montana St",2,2,"N/A","S Grand Blvd and Montana St ,  Saint Louis ,  Missouri","-90.2447307","38.5837653"
"134","28-Aug-16","Alabama","Dadeville","512 E Columbus St",0,5,"N/A","512 E Columbus St ,  Dadeville ,  Alabama","-85.7570917","32.829782"
"135","27-Aug-16","Alabama","Bessemer (Brighton)","3810 7th Ave",1,6,"N/A","3810 7th Ave ,  Bessemer (Brighton) ,  Alabama","-86.9503954","33.4415292"
"136","27-Aug-16","Florida","Miami","1900 block of NW 83rd Terr",2,4,"N/A","1900 block of NW 83rd Terr ,  Miami ,  Florida","-80.229801","25.8505231"
"137","25-Aug-16","New Jersey","Bridgeton","Marion Street",0,5,"N/A","Marion Street ,  Bridgeton ,  New Jersey","NA","NA"
"138","21-Aug-16","Connecticut","Bridgeport","19 Plymouth St",0,13,"N/A","19 Plymouth St ,  Bridgeport ,  Connecticut","-73.1755346","41.198299"
"139","21-Aug-16","Massachusetts","Boston","Westview and Stratton Street",0,4,"N/A","Westview and Stratton Street ,  Boston ,  Massachusetts","-71.0887781","42.2911132"
"140","20-Aug-16","Washington","Tacoma","900 block of Pacific Avenue",0,5,"N/A","900 block of Pacific Avenue ,  Tacoma ,  Washington","-122.4390956","47.2554249"
"141","20-Aug-16","Connecticut","Hamden","903 Dixwell Ave",0,4,"N/A","903 Dixwell Ave ,  Hamden ,  Connecticut","-72.9349372","41.3377926"
"142","20-Aug-16","Alabama","Citronelle","Jim Platt Road",5,0,"N/A","Jim Platt Road ,  Citronelle ,  Alabama","-88.308808","31.049996"
"143","18-Aug-16","Connecticut","Waterbury","402 E Main Street",0,4,"N/A","402 E Main Street ,  Waterbury ,  Connecticut","-73.0339714","41.5541466"
"144","17-Aug-16","California","Oakland","Mandela Parkway",0,4,"N/A","Mandela Parkway ,  Oakland ,  California","-122.2900858","37.8152684"
"145","14-Aug-16","Virginia","Norfolk","1600 block of Selden Avenue",0,4,"N/A","1600 block of Selden Avenue ,  Norfolk ,  Virginia","NA","NA"
"146","14-Aug-16","Minnesota","Minneapolis","1717 Plymouth Ave N",0,5,"N/A","1717 Plymouth Ave N ,  Minneapolis ,  Minnesota","-93.302672","44.9912473"
"147","13-Aug-16","California","Los Angeles","6300 block of 11th Avenue",0,4,"N/A","6300 block of 11th Avenue ,  Los Angeles ,  California","NA","NA"
"148","13-Aug-16","Wisconsin","Milwaukee","4001 West Fond Du Lac Ave",2,2,"N/A","4001 West Fond Du Lac Ave ,  Milwaukee ,  Wisconsin","-87.9635538","43.0795775"
"149","13-Aug-16","New York","Richmond Hill","Jamaica Ave and 105th St",0,4,"N/A","Jamaica Ave and 105th St ,  Richmond Hill ,  New York","NA","NA"
"150","13-Aug-16","Missouri","Joplin","1800 Connecticut Ave",0,4,"N/A","1800 Connecticut Ave ,  Joplin ,  Missouri","-94.4942382","37.0712829"
"151","12-Aug-16","Florida","Jacksonville","100 block of West 38th Street",1,3,"N/A","100 block of West 38th Street ,  Jacksonville ,  Florida","NA","NA"
"152","12-Aug-16","Texas","Dallas","10921 Estate Ln",1,3,"N/A","10921 Estate Ln ,  Dallas ,  Texas","-96.6968549","32.8825255"
"153","11-Aug-16","Pennsylvania","Philadelphia","500 block of E Ashmead St",0,4,"N/A","500 block of E Ashmead St ,  Philadelphia ,  Pennsylvania","NA","NA"
"154","10-Aug-16","Illinois","Evanston","Foster Street and Jackson Avenue",0,4,"N/A","Foster Street and Jackson Avenue ,  Evanston ,  Illinois","-87.6928302","42.0539235"
"155","10-Aug-16","California","Sacramento","4000 Green Tree Drive",1,3,"N/A","4000 Green Tree Drive ,  Sacramento ,  California","-121.4598395","38.4979558"
"156","8-Aug-16","New Mexico","Albuquerque","341 General Marshall Street NE",2,2,"N/A","341 General Marshall Street NE ,  Albuquerque ,  New Mexico","-106.5495453","35.0798997"
"157","8-Aug-16","Florida","Jacksonville","1214 Labelle St",0,7,"N/A","1214 Labelle St ,  Jacksonville ,  Florida","-81.732164","30.302565"
"158","7-Aug-16","California","Los Angeles","5925 South Figueroa Street",1,3,"N/A","5925 South Figueroa Street ,  Los Angeles ,  California","NA","NA"
"159","7-Aug-16","Mississippi","Vicksburg","4460 Clay St",1,3,"N/A","4460 Clay St ,  Vicksburg ,  Mississippi","-90.8295285","32.3438839"
"160","7-Aug-16","Colorado","Arvada","5400 block of Sheridan Boulevard",2,2,"N/A","5400 block of Sheridan Boulevard ,  Arvada ,  Colorado","-105.0519541","39.7944462"
"161","7-Aug-16","Illinois","Chicago","100 block of South Springfield",0,4,"N/A","100 block of South Springfield ,  Chicago ,  Illinois","-87.7231847","41.8797739"
"162","6-Aug-16","Pennsylvania","Reading (Sinking Spring)","51 Winding Brook Drive",5,0,"N/A","51 Winding Brook Drive ,  Reading (Sinking Spring) ,  Pennsylvania","-76.0242828","40.3317808"
"163","5-Aug-16","Michigan","Pontiac","70 block of Thorpe Street",1,3,"N/A","70 block of Thorpe Street ,  Pontiac ,  Michigan","-83.3115863","42.637713"
"164","5-Aug-16","California","Perris","21600 block of Rider St",2,2,"N/A","21600 block of Rider St ,  Perris ,  California","NA","NA"
"165","4-Aug-16","Tennessee","Memphis","Ayers Street and Griffith Avenue",0,4,"N/A","Ayers Street and Griffith Avenue ,  Memphis ,  Tennessee","-90.0276687","35.161441"
"166","3-Aug-16","Georgia","Decatur","4110 Glenwood Road",1,3,"N/A","4110 Glenwood Road ,  Decatur ,  Georgia","NA","NA"
"167","2-Aug-16","Florida","Hollywood (West Park)","5700 block of Hallandale Beach Blvd",0,4,"N/A","5700 block of Hallandale Beach Blvd ,  Hollywood (West Park) ,  Florida","-80.2003543","25.984201"
"168","1-Aug-16","Indiana","Evansville","South Bedford Avenue",0,4,"N/A","South Bedford Avenue ,  Evansville ,  Indiana","-87.549766","37.964448"
"169","31-Jul-16","Florida","Miami","Southwest 203rd Terrace and 115th Avenue",3,1,"N/A","Southwest 203rd Terrace and 115th Avenue ,  Miami ,  Florida","-80.378916","25.57761"
"170","31-Jul-16","Texas","Austin","208 E 6th St",1,4,"N/A","208 E 6th St ,  Austin ,  Texas","-97.74097","30.2678607"
"171","30-Jul-16","Missouri","Saint Louis","5000 block of Kensington Ave",0,5,"N/A","5000 block of Kensington Ave ,  Saint Louis ,  Missouri","-90.2631671","38.653869"
"172","30-Jul-16","Georgia","Townsend (Eulonia)","14699 Highway 17",0,5,"N/A","14699 Highway 17 ,  Townsend (Eulonia) ,  Georgia","-81.4304998","31.52495"
"173","30-Jul-16","Washington","Mukilteo","10009 Chennault Beach",3,1,"N/A","10009 Chennault Beach ,  Mukilteo ,  Washington","NA","NA"
"174","29-Jul-16","Georgia","Athens","Trail Creek St",0,7,"N/A","Trail Creek St ,  Athens ,  Georgia","NA","NA"
"175","28-Jul-16","New York","Elmira","303 College Ave",0,5,"N/A","303 College Ave ,  Elmira ,  New York","-76.8105769","42.0896554"
"176","28-Jul-16","Maryland","Baltimore","Greenmount Avenue",0,4,"N/A","Greenmount Avenue ,  Baltimore ,  Maryland","-76.6094629","39.3188223"
"177","28-Jul-16","Illinois","Chicago","800 block of West 50th Place",2,2,"N/A","800 block of West 50th Place ,  Chicago ,  Illinois","-87.6453979","41.8024773"
"178","25-Jul-16","Florida","Fort Myers","3580 Evans Ave",2,19,"N/A","3580 Evans Ave ,  Fort Myers ,  Florida","-81.8603207","26.6107261"
"179","24-Jul-16","Ohio","Hamilton","1555 Main St",1,7,"N/A","1555 Main St ,  Hamilton ,  Ohio","-84.5993119","39.428343"
"180","23-Jul-16","South Carolina","North Charleston","3630 Ashley Phosphate Road",0,4,"N/A","3630 Ashley Phosphate Road ,  North Charleston ,  South Carolina","-80.0846833","32.9256053"
"181","23-Jul-16","New York","Brooklyn","Fountain Avenue",0,4,"N/A","Fountain Avenue ,  Brooklyn ,  New York","-73.8711445","40.6657986"
"182","23-Jul-16","Ohio","Cincinnati","3400 block of Beekman Street",2,2,"N/A","3400 block of Beekman Street ,  Cincinnati ,  Ohio","NA","NA"
"183","23-Jul-16","Texas","Bastrop","202 Childers Drive",4,1,"N/A","202 Childers Drive ,  Bastrop ,  Texas","NA","NA"
"184","22-Jul-16","Illinois","Kankakee","300 block of North Wildwood Avenue",0,5,"N/A","300 block of North Wildwood Avenue ,  Kankakee ,  Illinois","-87.8536075","41.1218539"
"185","21-Jul-16","Illinois","Chicago","4400 block of South Leamington",0,5,"N/A","4400 block of South Leamington ,  Chicago ,  Illinois","-87.752214","41.812846"
"186","20-Jul-16","California","Fresno","Hedges at Peach and Olive",0,4,"N/A","Hedges at Peach and Olive ,  Fresno ,  California","NA","NA"
"187","19-Jul-16","Arkansas","West Memphis","13th Street and Tyler Avenue",0,4,"N/A","13th Street and Tyler Avenue ,  West Memphis ,  Arkansas","-90.168781","35.1433327"
"188","17-Jul-16","Louisiana","Baton Rouge","9611 Airline Highway",4,3,"N/A","9611 Airline Highway ,  Baton Rouge ,  Louisiana","-91.0822147","30.4339132"
"189","17-Jul-16","Texas","Houston","6610 Tidwell",1,3,"N/A","6610 Tidwell ,  Houston ,  Texas","-95.3029811","29.8478847"
"190","17-Jul-16","Michigan","Detroit","Grand River and McGraw avenue",0,4,"N/A","Grand River and McGraw avenue ,  Detroit ,  Michigan","-83.1009443","42.3533894"
"191","16-Jul-16","Texas","Dallas","6300 block of Benavides Drive",0,5,"N/A","6300 block of Benavides Drive ,  Dallas ,  Texas","NA","NA"
"192","16-Jul-16","Ohio","Cleveland","5000 block of Euclid Avenue",0,5,"N/A","5000 block of Euclid Avenue ,  Cleveland ,  Ohio","-81.6542815","41.5039407"
"193","16-Jul-16","California","San Bernardino","1200 block of West 25th Street",0,4,"N/A","1200 block of West 25th Street ,  San Bernardino ,  California","NA","NA"
"194","16-Jul-16","California","Bakersfield","621 Stephens Drive",1,14,"N/A","621 Stephens Drive ,  Bakersfield ,  California","-119.0359232","35.347847"
"195","16-Jul-16","Tennessee","Clarksville","1348 College Street",0,6,"N/A","1348 College Street ,  Clarksville ,  Tennessee","-87.3363158","36.540861"
"196","15-Jul-16","Washington","Woodland","4006 NW 417th Street",3,1,"N/A","4006 NW 417th Street ,  Woodland ,  Washington","-122.7124209","45.9231023"
"197","14-Jul-16","Texas","Crosby","400 block of Pecan Avenue",3,1,"N/A","400 block of Pecan Avenue ,  Crosby ,  Texas","-95.0662297","29.8723599"
"198","14-Jul-16","California","Oakland","1600 block of 7th Street",0,4,"N/A","1600 block of 7th Street ,  Oakland ,  California","-122.2982197","37.8062846"
"199","14-Jul-16","Ohio","Akron","900 block of Moeller Avenue",1,3,"N/A","900 block of Moeller Avenue ,  Akron ,  Ohio","-81.5449249","41.0692133"
"200","13-Jul-16","Georgia","Warner Robins","105 Magnolia Avenue",0,5,"N/A","105 Magnolia Avenue ,  Warner Robins ,  Georgia","-83.615857","32.643751"
"201","13-Jul-16","Missouri","Saint Louis","3000 block of Miami St",2,2,"N/A","3000 block of Miami St ,  Saint Louis ,  Missouri","-90.234406","38.59048"
"202","11-Jul-16","Maryland","Baltimore","1800 block of W. North Avenue",0,5,"N/A","1800 block of W. North Avenue ,  Baltimore ,  Maryland","NA","NA"
"203","11-Jul-16","Michigan","Jackson","500 block of Summit Avenue",0,4,"N/A","500 block of Summit Avenue ,  Jackson ,  Michigan","-84.3880416","42.2466072"
"204","11-Jul-16","Michigan","Saint Joseph","811 Port St",3,2,"N/A","811 Port St ,  Saint Joseph ,  Michigan","-86.4772334","42.1101154"
"205","11-Jul-16","District of Columbia","Washington","5100 block of Call Pl., SE",0,4,"N/A","5100 block of Call Pl., SE ,  Washington ,  District of Columbia","-76.9283874","38.8843111"
"206","7-Jul-16","Tennessee","Bristol","536 Volunteer Parkway",1,4,"N/A","536 Volunteer Parkway ,  Bristol ,  Tennessee","-82.1861058","36.5871763"
"207","7-Jul-16","Texas","Dallas","800 Main St",5,9,"N/A","800 Main St ,  Dallas ,  Texas","NA","NA"
"208","7-Jul-16","Louisiana","Baton Rouge","2136 North Lobdell Avenue",0,4,"N/A","2136 North Lobdell Avenue ,  Baton Rouge ,  Louisiana","-91.1180452","30.4680064"
"209","5-Jul-16","California","Los Angeles","56th Street and Naomi Avenue",0,4,"N/A","56th Street and Naomi Avenue ,  Los Angeles ,  California","NA","NA"
"210","4-Jul-16","Pennsylvania","Pittsburgh","Seventh  Ave and Liberty Ave",0,4,"N/A","Seventh  Ave and Liberty Ave ,  Pittsburgh ,  Pennsylvania","-79.9973626","40.4431054"
"211","4-Jul-16","Illinois","Chicago (Englewood)","5500 block of South Hermitage Avenue",0,4,"N/A","5500 block of South Hermitage Avenue ,  Chicago (Englewood) ,  Illinois","-87.6682188","41.7935899"
"212","4-Jul-16","New York","Brooklyn","419 Chauncey Street",0,7,"N/A","419 Chauncey Street ,  Brooklyn ,  New York","-73.9176804","40.6819584"
"213","4-Jul-16","Ohio","Cleveland","1400 block of W. 107 Street",0,4,"N/A","1400 block of W. 107 Street ,  Cleveland ,  Ohio","-81.761476","41.4817352"
"214","4-Jul-16","Texas","Houston","1300 block of Robin",3,2,"N/A","1300 block of Robin ,  Houston ,  Texas","-95.3806045","29.7565882"
"215","4-Jul-16","Arizona","Phoenix","4000 block of West Southern Avenue",2,6,"N/A","4000 block of West Southern Avenue ,  Phoenix ,  Arizona","NA","NA"
"216","3-Jul-16","Louisiana","Monroe","401 Lea Joyner Memorial Expy",2,3,"N/A","401 Lea Joyner Memorial Expy ,  Monroe ,  Louisiana","-92.1070681","32.5025818"
"217","3-Jul-16","Tennessee","Chattanooga","2300 block of Daisy Street",0,4,"N/A","2300 block of Daisy Street ,  Chattanooga ,  Tennessee","NA","NA"
"218","30-Jun-16","Illinois","Chicago","9500 block of South Loomis Street",1,4,"N/A","9500 block of South Loomis Street ,  Chicago ,  Illinois","-87.6577041","41.7210988"
"219","29-Jun-16","Nevada","Las Vegas","6100 block of West Lake Mead Boulevard",5,0,"N/A","6100 block of West Lake Mead Boulevard ,  Las Vegas ,  Nevada","-115.2239793","36.1957802"
"220","28-Jun-16","California","Los Angeles","13800 block of S Avalon Boulevard",1,3,"N/A","13800 block of S Avalon Boulevard ,  Los Angeles ,  California","-118.2652934","33.9063989"
"221","28-Jun-16","Illinois","Chicago","1600 block of South Christiana",0,4,"N/A","1600 block of South Christiana ,  Chicago ,  Illinois","NA","NA"
"222","27-Jun-16","Oregon","Woodburn","13436 Killiam Loop NE",3,1,"N/A","13436 Killiam Loop NE ,  Woodburn ,  Oregon","-122.7842785","45.1478739"
"223","26-Jun-16","South Carolina","Bennettsville","Highway 38 N",0,4,"N/A","Highway 38 N ,  Bennettsville ,  South Carolina","-79.679436","34.6084346"
"224","26-Jun-16","Georgia","Atlanta","1500 block of Moreland Avenue SE",1,4,"N/A","1500 block of Moreland Avenue SE ,  Atlanta ,  Georgia","-84.3486644","33.7111825"
"225","26-Jun-16","Texas","Houston","6000 block of Elm Street",1,3,"N/A","6000 block of Elm Street ,  Houston ,  Texas","-95.4869789","29.7127764"
"226","26-Jun-16","Texas","Corpus Christi","Baldwin Blvd  and Lamar",0,4,"N/A","Baldwin Blvd  and Lamar ,  Corpus Christi ,  Texas","-97.4213592","27.7741197"
"227","26-Jun-16","North Carolina","Charlotte","2240 Camp Greene St.",0,5,"N/A","2240 Camp Greene St. ,  Charlotte ,  North Carolina","-80.8849712","35.2246218"
"228","25-Jun-16","Texas","Fort Worth","2466 East Lancaster Avenue",2,5,"N/A","2466 East Lancaster Avenue ,  Fort Worth ,  Texas","-97.2916452","32.7443545"
"229","25-Jun-16","Virginia","Norfolk","700 block of Craig Street",0,4,"N/A","700 block of Craig Street ,  Norfolk ,  Virginia","-76.2786591","36.8281956"
"230","25-Jun-16","Illinois","Chicago","1400 block of W. 114th Place",0,4,"N/A","1400 block of W. 114th Place ,  Chicago ,  Illinois","-87.6569173","41.6860028"
"231","24-Jun-16","Kansas","Kansas City","N. 3rd and Walker",0,4,"N/A","N. 3rd and Walker ,  Kansas City ,  Kansas","NA","NA"
"232","24-Jun-16","Connecticut","Hartford","Brook and Winter Street",0,5,"N/A","Brook and Winter Street ,  Hartford ,  Connecticut","NA","NA"
"233","24-Jun-16","Maryland","District Heights","3100 block of Orleans Ave",3,2,"N/A","3100 block of Orleans Ave ,  District Heights ,  Maryland","NA","NA"
"234","22-Jun-16","Washington","Olympia","500 block of Dutterow Road SE",3,1,"N/A","500 block of Dutterow Road SE ,  Olympia ,  Washington","NA","NA"
"235","22-Jun-16","Georgia","Dekalb (county)","Lancashire Drive and Central Drive",1,4,"N/A","Lancashire Drive and Central Drive ,  Dekalb (county) ,  Georgia","NA","NA"
"236","22-Jun-16","Illinois","Chicago","3100 block of West Warren",0,4,"N/A","3100 block of West Warren ,  Chicago ,  Illinois","-87.7038016","41.8819174"
"237","21-Jun-16","New Jersey","Willingboro","Mosshill Lane",0,4,"N/A","Mosshill Lane ,  Willingboro ,  New Jersey","-74.8923405","40.031029"
"238","21-Jun-16","Kentucky","Louisville","2802 Rodman Street",2,2,"N/A","2802 Rodman Street ,  Louisville ,  Kentucky","-85.7701288","38.2088656"
"239","19-Jun-16","Virginia","Roanoke","2328 Melrose Avenue",0,4,"N/A","2328 Melrose Avenue ,  Roanoke ,  Virginia","NA","NA"
"240","18-Jun-16","Virginia","Exmore","Fredrick Douglas Road",1,3,"N/A","Fredrick Douglas Road ,  Exmore ,  Virginia","NA","NA"
"241","18-Jun-16","Georgia","Waycross","2625 Arnold Ct",2,2,"N/A","2625 Arnold Ct ,  Waycross ,  Georgia","-82.3755135","31.222011"
"242","18-Jun-16","Illinois","Chicago","East 79th Street and South Escanaba Avenue",0,4,"N/A","East 79th Street and South Escanaba Avenue ,  Chicago ,  Illinois","-87.5540382","41.7518868"
"243","14-Jun-16","Delaware","Wilmington","South Van Buren and Elm streets",0,4,"N/A","South Van Buren and Elm streets ,  Wilmington ,  Delaware","-75.5645628","39.7407805"
"244","14-Jun-16","California","Oakland","1301 Franklin Street",1,3,"N/A","1301 Franklin Street ,  Oakland ,  California","-122.2705004","37.8034622"
"245","13-Jun-16","California","Fresno","East El Monte Way and Recreation Avenue",0,4,"N/A","East El Monte Way and Recreation Avenue ,  Fresno ,  California","-119.7387116","36.7349771"
"246","13-Jun-16","New York","Brooklyn","Avenue D and E. 57th",0,5,"N/A","Avenue D and E. 57th ,  Brooklyn ,  New York","-73.9226193","40.6427459"
"247","13-Jun-16","Illinois","Chicago","3200 block of West Congress",0,5,"N/A","3200 block of West Congress ,  Chicago ,  Illinois","NA","NA"
"248","12-Jun-16","Florida","Orlando","1912 S Orange Avenue",50,53,"N/A","1912 S Orange Avenue ,  Orlando ,  Florida","-81.3768459","28.5196118"
"249","11-Jun-16","New Mexico","Roswell","2300 block of Davis Ave",5,0,"N/A","2300 block of Davis Ave ,  Roswell ,  New Mexico","-104.5184652","33.4198165"
"250","11-Jun-16","Minnesota","Webster","4000 block of Elmore Avenue",0,4,"N/A","4000 block of Elmore Avenue ,  Webster ,  Minnesota","-93.3728498","44.5297813"
"251","11-Jun-16","California","Stockton","Alvarado Avenue",1,3,"N/A","Alvarado Avenue ,  Stockton ,  California","NA","NA"
"252","11-Jun-16","California","Panorama City","8500 block of Cedros Avenue",3,2,"N/A","8500 block of Cedros Avenue ,  Panorama City ,  California","NA","NA"
"253","11-Jun-16","North Carolina","Charlotte","4000 block of Collegiate Avenue",1,3,"N/A","4000 block of Collegiate Avenue ,  Charlotte ,  North Carolina","-80.7105361","35.3242274"
"254","9-Jun-16","Florida","Fort Walton Beach","Landview Drive",0,4,"N/A","Landview Drive ,  Fort Walton Beach ,  Florida","-86.648831","30.462036"
"255","8-Jun-16","District of Columbia","Washington","North Capitol Street and New York Avenue NW",0,4,"N/A","North Capitol Street and New York Avenue NW ,  Washington ,  District of Columbia","-77.009194","38.9073545"
"256","8-Jun-16","Massachusetts","Boston","66 Washington St",1,3,"N/A","66 Washington St ,  Boston ,  Massachusetts","-71.142501","42.343197"
"257","6-Jun-16","California","Visalia","33 60 South Fairway Street",0,4,"N/A","33 60 South Fairway Street ,  Visalia ,  California","NA","NA"
"258","5-Jun-16","Minnesota","Minneapolis","8th and Humboldt Avenue N.",0,4,"N/A","8th and Humboldt Avenue N. ,  Minneapolis ,  Minnesota","-93.2981823","44.9863398"
"259","5-Jun-16","Florida","Cape Coral","2600 block of Skyline Boulevard S",3,3,"N/A","2600 block of Skyline Boulevard S ,  Cape Coral ,  Florida","-81.9909408","26.6035305"
"260","5-Jun-16","Arizona","Phoenix","8152 N Black Canyon Hwy",2,4,"N/A","8152 N Black Canyon Hwy ,  Phoenix ,  Arizona","-112.1140293","33.5564792"
"261","5-Jun-16","New York","Brooklyn","Mermaid Ave and 16th St.",0,4,"N/A","Mermaid Ave and 16th St. ,  Brooklyn ,  New York","NA","NA"
"262","4-Jun-16","Colorado","Denver","3600 block of Hudson Street",3,1,"N/A","3600 block of Hudson Street ,  Denver ,  Colorado","-104.9234444","39.7674446"
"263","31-May-16","Illinois","Chicago","3300 block of West Huron Street",0,4,"N/A","3300 block of West Huron Street ,  Chicago ,  Illinois","-87.7089351","41.8936911"
"264","31-May-16","Indiana","Fort Wayne","6600 block of Pawawna Drive",0,4,"N/A","6600 block of Pawawna Drive ,  Fort Wayne ,  Indiana","-85.0571391","41.1059598"
"265","30-May-16","Maryland","Baltimore","500 block of East 43rd Street",0,5,"N/A","500 block of East 43rd Street ,  Baltimore ,  Maryland","NA","NA"
"266","30-May-16","California","Sacramento","3900 block of 44th",0,5,"N/A","3900 block of 44th ,  Sacramento ,  California","-121.4554443","38.5394525"
"267","29-May-16","Nevada","Las Vegas","200 block of N 3rd St",0,4,"N/A","200 block of N 3rd St ,  Las Vegas ,  Nevada","-115.1413268","36.1720387"
"268","29-May-16","New Jersey","Trenton","600 block of Martin Luther King Jr. Boulevard",0,6,"N/A","600 block of Martin Luther King Jr. Boulevard ,  Trenton ,  New Jersey","-74.763225","40.229425"
"269","29-May-16","Indiana","Indianapolis","300 block of South Meridian Street",0,4,"N/A","300 block of South Meridian Street ,  Indianapolis ,  Indiana","-86.1600739","39.7625906"
"270","29-May-16","Texas","Houston","13210 Memorial Drive",2,6,"N/A","13210 Memorial Drive ,  Houston ,  Texas","-95.5741375","29.7730265"
"271","23-May-16","New Jersey","Newark","102 Isabella Avenue",0,5,"N/A","102 Isabella Avenue ,  Newark ,  New Jersey","-74.2209361","40.741444"
"272","22-May-16","Louisiana","New Orleans","8639 Apple St",0,4,"N/A","8639 Apple St ,  New Orleans ,  Louisiana","-90.1237075","29.9616419"
"273","22-May-16","California","Stockton","Poplar and Sutter Streets",1,3,"N/A","Poplar and Sutter Streets ,  Stockton ,  California","-121.2882889","37.962289"
"274","22-May-16","Tennessee","Nashville","100 block of Rains Avenue",0,4,"N/A","100 block of Rains Avenue ,  Nashville ,  Tennessee","-86.7638002","36.1401248"
"275","21-May-16","Georgia","Jackson","Levi Barnes Road",1,3,"N/A","Levi Barnes Road ,  Jackson ,  Georgia","-84.0273833","33.2598338"
"276","18-May-16","Indiana","Indianapolis","34th Street and North Keystone Avenue",0,4,"N/A","34th Street and North Keystone Avenue ,  Indianapolis ,  Indiana","NA","NA"
"277","17-May-16","South Carolina","Ravenel","5360 Savannah Highway",3,1,"N/A","5360 Savannah Highway ,  Ravenel ,  South Carolina","-80.203702","32.784928"
"278","15-May-16","Indiana","Evansville","420 North Garvin Street",0,4,"N/A","420 North Garvin Street ,  Evansville ,  Indiana","NA","NA"
"279","15-May-16","Georgia","Moultrie","Rossman Dairy Road",5,0,"N/A","Rossman Dairy Road ,  Moultrie ,  Georgia","-83.8518009","31.2123524"
"280","14-May-16","Georgia","Atlanta","Cordova and Peoples Street",0,5,"N/A","Cordova and Peoples Street ,  Atlanta ,  Georgia","NA","NA"
"281","14-May-16","West Virginia","Charleston","2337 Washington St W",1,3,"N/A","2337 Washington St W ,  Charleston ,  West Virginia","NA","NA"
"282","11-May-16","Alabama","Birmingham","1400 block of 21st Street N",1,4,"N/A","1400 block of 21st Street N ,  Birmingham ,  Alabama","-86.814271","33.531259"
"283","11-May-16","Illinois","Chicago","7100 block of South State Street",0,5,"N/A","7100 block of South State Street ,  Chicago ,  Illinois","-87.6248645","41.7639336"
"284","8-May-16","Texas","Austin","8600 block of North Lamar",1,3,"N/A","8600 block of North Lamar ,  Austin ,  Texas","-97.7046928","30.3546103"
"285","6-May-16","Michigan","Detroit","12300 block of Gratiot",1,4,"N/A","12300 block of Gratiot ,  Detroit ,  Michigan","NA","NA"
"286","6-May-16","Alabama","Montgomery","1300 block of Clay Street",1,3,"N/A","1300 block of Clay Street ,  Montgomery ,  Alabama","-86.3332762","32.3757177"
"287","6-May-16","Maryland","Bethesda","7101 Democracy Blvd",3,3,"N/A","7101 Democracy Blvd ,  Bethesda ,  Maryland","-77.1474828","39.0257056"
"288","5-May-16","Louisiana","Shreveport","300 block of North Thomas Drive",2,6,"N/A","300 block of North Thomas Drive ,  Shreveport ,  Louisiana","NA","NA"
"289","5-May-16","Florida","Miami","2108 NW 19th Terrace",1,3,"N/A","2108 NW 19th Terrace ,  Miami ,  Florida","-80.227331","25.7937372"
"290","4-May-16","Minnesota","Minneapolis","16th Avenue North and Newton Avenue North",1,7,"N/A","16th Avenue North and Newton Avenue North ,  Minneapolis ,  Minnesota","-93.30571","44.99522"
"291","1-May-16","Tennessee","Murfreesboro","1955 Old Castle Drive",0,5,"N/A","1955 Old Castle Drive ,  Murfreesboro ,  Tennessee","-86.349051","35.822794"
"292","29-Apr-16","Missouri","Saint Louis (Ferguson)","400 block of N Dade Ave",0,4,"N/A","400 block of N Dade Ave ,  Saint Louis (Ferguson) ,  Missouri","-90.315066","38.7509246"
"293","29-Apr-16","California","Oakland","3200 block of San Pablo Avenue",0,5,"N/A","3200 block of San Pablo Avenue ,  Oakland ,  California","-122.2770867","37.822573"
"294","27-Apr-16","Louisiana","Baton Rouge","4300  Block of Kerrit Dr",2,2,"N/A","4300  Block of Kerrit Dr ,  Baton Rouge ,  Louisiana","-91.0871866","30.4903259"
"295","27-Apr-16","Mississippi","Kilmichael","Pecan Drive",3,1,"N/A","Pecan Drive ,  Kilmichael ,  Mississippi","-89.5724082","33.4353991"
"296","26-Apr-16","Maryland","District Heights (Forestville)","6500 block of Hil-Mar Drive",1,4,"N/A","6500 block of Hil-Mar Drive ,  District Heights (Forestville) ,  Maryland","-76.895417","38.8431713"
"297","25-Apr-16","Tennessee","Nashville","400 Charlotte Avenue",0,4,"N/A","400 Charlotte Avenue ,  Nashville ,  Tennessee","-86.7814597","36.166494"
"298","25-Apr-16","Florida","Miami","1506 Northwest 70th Street",0,5,"N/A","1506 Northwest 70th Street ,  Miami ,  Florida","NA","NA"
"299","24-Apr-16","Virginia","Halifax","1055 L P Bailey Memorial Hwy",0,5,"N/A","1055 L P Bailey Memorial Hwy ,  Halifax ,  Virginia","-78.9223163","36.7767091"
"300","24-Apr-16","Illinois","Chicago (Englewood)","2000 block of West 68th Place",2,3,"N/A","2000 block of West 68th Place ,  Chicago (Englewood) ,  Illinois","-87.6738704","41.7695536"
"301","24-Apr-16","Colorado","Denver","1400 block of 14th Street",0,4,"N/A","1400 block of 14th Street ,  Denver ,  Colorado","-105.0006961","39.7480015"
"302","23-Apr-16","Nevada","Las Vegas","1650 South Hollywood Boulevard",1,3,"N/A","1650 South Hollywood Boulevard ,  Las Vegas ,  Nevada","-115.025793","36.1526698"
"303","23-Apr-16","Alabama","Auburn","1200 block of Lee Road 83",3,1,"N/A","1200 block of Lee Road 83 ,  Auburn ,  Alabama","-85.4190304","32.5470452"
"304","23-Apr-16","Kansas","Topeka","3732 S.W. Topeka Boulevard",1,4,"N/A","3732 S.W. Topeka Boulevard ,  Topeka ,  Kansas","-95.6873432","38.9989899"
"305","23-Apr-16","New York","New York (Manhattan)","West 141st Street and Edgecombe Avenue",0,4,"N/A","West 141st Street and Edgecombe Avenue ,  New York (Manhattan) ,  New York","-73.9451634","40.8208788"
"306","22-Apr-16","Ohio","Piketon","4077 Union Hill Road",8,0,"N/A","4077 Union Hill Road ,  Piketon ,  Ohio","NA","NA"
"307","22-Apr-16","Georgia","Appling","3162 Johnson Drive",6,0,"N/A","3162 Johnson Drive ,  Appling ,  Georgia","-82.2246035","33.5991456"
"308","21-Apr-16","Maryland","Baltimore","4800 block of Frankford Avenue",0,4,"N/A","4800 block of Frankford Avenue ,  Baltimore ,  Maryland","-76.545298","39.3323899"
"309","19-Apr-16","Alabama","Blountsville","81551 Us Highway 278",1,4,"N/A","81551 Us Highway 278 ,  Blountsville ,  Alabama","-86.4690854","34.1599125"
"310","19-Apr-16","Illinois","Chicago","2700 block of West 53rd Street",1,3,"N/A","2700 block of West 53rd Street ,  Chicago ,  Illinois","-87.6914673","41.7973737"
"311","19-Apr-16","Illinois","Chicago","1400 block of West 84th Street",1,4,"N/A","1400 block of West 84th Street ,  Chicago ,  Illinois","-87.6583636","41.7413927"
"312","18-Apr-16","California","Long Beach","1200 block of E. 17th Street",1,3,"N/A","1200 block of E. 17th Street ,  Long Beach ,  California","NA","NA"
"313","17-Apr-16","Pennsylvania","Philadelphia","600 block of Westmoreland Street",3,1,"N/A","600 block of Westmoreland Street ,  Philadelphia ,  Pennsylvania","NA","NA"
"314","17-Apr-16","South Carolina","Pelzer","200 block of Eastview Road",1,3,"N/A","200 block of Eastview Road ,  Pelzer ,  South Carolina","-82.4371328","34.6458888"
"315","17-Apr-16","Texas","Edinburg","5021 W St Hwy 107",1,6,"N/A","5021 W St Hwy 107 ,  Edinburg ,  Texas","NA","NA"
"316","16-Apr-16","Michigan","Detroit","9500 block of Oakland",1,4,"N/A","9500 block of Oakland ,  Detroit ,  Michigan","-83.0741777","42.3882354"
"317","16-Apr-16","Florida","Orlando","1100 block of Conley Street",2,4,"N/A","1100 block of Conley Street ,  Orlando ,  Florida","-81.3935984","28.5329354"
"318","16-Apr-16","Alabama","Enterprise","Baxter Street",0,4,"N/A","Baxter Street ,  Enterprise ,  Alabama","-85.8154565","31.3036645"
"319","10-Apr-16","Wisconsin","Milwaukee","76th and Sheridan",1,3,"N/A","76th and Sheridan ,  Milwaukee ,  Wisconsin","-88.0060965","43.1182626"
"320","10-Apr-16","California","Los Angeles","84th Street and Towne Avenue",0,4,"N/A","84th Street and Towne Avenue ,  Los Angeles ,  California","NA","NA"
"321","9-Apr-16","Tennessee","Memphis","Mt Moriah Road and Ridgeway Road",0,4,"N/A","Mt Moriah Road and Ridgeway Road ,  Memphis ,  Tennessee","-89.8635211","35.0724222"
"322","9-Apr-16","Alabama","Anniston","West 15th Street and Crawford Avenue",0,4,"N/A","West 15th Street and Crawford Avenue ,  Anniston ,  Alabama","-85.8501035","33.6636468"
"323","9-Apr-16","New Mexico","Albuquerque","2600 block of Mesa Drive SE",0,4,"N/A","2600 block of Mesa Drive SE ,  Albuquerque ,  New Mexico","-106.6270585","35.0557984"
"324","7-Apr-16","Illinois","Chicago","2200 block of East 70th Place",0,4,"N/A","2200 block of East 70th Place ,  Chicago ,  Illinois","-87.5712641","41.7672555"
"325","31-Mar-16","Illinois","Chicago (Englewood)","6800 block of South Throop",0,4,"N/A","6800 block of South Throop ,  Chicago (Englewood) ,  Illinois","-87.657037","41.770355"
"326","25-Mar-16","Illinois","Chicago","4500 block of West West End Avenue",0,4,"N/A","4500 block of West West End Avenue ,  Chicago ,  Illinois","NA","NA"
"327","25-Mar-16","Colorado","Denver","8501 E. Alameda Avenue",0,4,"N/A","8501 E. Alameda Avenue ,  Denver ,  Colorado","-104.8872076","39.7085939"
"328","21-Mar-16","Illinois","Chicago","5700 block of West Washington Boulevard",0,4,"N/A","5700 block of West Washington Boulevard ,  Chicago ,  Illinois","-87.768658","41.88238"
"329","19-Mar-16","Florida","Plantation","12050 NW 4th Court",1,4,"N/A","12050 NW 4th Court ,  Plantation ,  Florida","-80.3094284","26.1250153"
"330","19-Mar-16","Alabama","Wetumpka","South Shelby Street",2,2,"N/A","South Shelby Street ,  Wetumpka ,  Alabama","-86.2139577","32.5382681"
"331","15-Mar-16","Georgia","Atlanta","Donald Lee Hollowell Drive",0,5,"N/A","Donald Lee Hollowell Drive ,  Atlanta ,  Georgia","-84.459575","33.7768109"
"332","13-Mar-16","Florida","Fort Myers","50 South Road",0,4,"N/A","50 South Road ,  Fort Myers ,  Florida","NA","NA"
"333","12-Mar-16","Oregon","Portland","16126 S.E. Stark St.",0,4,"N/A","16126 S.E. Stark St. ,  Portland ,  Oregon","-122.4970141","45.519067"
"334","12-Mar-16","California","Oakland","Interstate 880",0,4,"N/A","Interstate 880 ,  Oakland ,  California","-122.2747755","37.7985649"
"335","11-Mar-16","Michigan","Detroit","2600 block of Hazelwood",2,2,"N/A","2600 block of Hazelwood ,  Detroit ,  Michigan","-83.1074886","42.3714836"
"336","11-Mar-16","New Jersey","Trenton","Oliver Avenue",0,5,"N/A","Oliver Avenue ,  Trenton ,  New Jersey","NA","NA"
"337","9-Mar-16","Pennsylvania","Pittsburgh","1304 Franklin Ave",5,3,"N/A","1304 Franklin Ave ,  Pittsburgh ,  Pennsylvania","-79.8729304","40.4381811"
"338","8-Mar-16","Texas","San Antonio","Sherman St",2,3,"N/A","Sherman St ,  San Antonio ,  Texas","NA","NA"
"339","7-Mar-16","Louisiana","Lafayette","800 block of Martin Luther King Jr. Drive",0,4,"N/A","800 block of Martin Luther King Jr. Drive ,  Lafayette ,  Louisiana","-92.0247938","30.2495862"
"340","7-Mar-16","Kansas","Kansas City","3000 block of South 36th Street",5,0,"N/A","3000 block of South 36th Street ,  Kansas City ,  Kansas","-94.6698804","39.0475649"
"341","6-Mar-16","Massachusetts","Chelsea","120 Washington Avenue",1,6,"N/A","120 Washington Avenue ,  Chelsea ,  Massachusetts","-71.0319246","42.3968909"
"342","6-Mar-16","Georgia","Roswell","890 Atlanta St",0,4,"N/A","890 Atlanta St ,  Roswell ,  Georgia","-84.3619929","34.0228347"
"343","6-Mar-16","California","Compton","900 block of West Victoria Street",1,8,"N/A","900 block of West Victoria Street ,  Compton ,  California","-118.2389731","33.867781"
"344","5-Mar-16","Kansas","Wichita","116 North Mead",0,4,"N/A","116 North Mead ,  Wichita ,  Kansas","NA","NA"
"345","4-Mar-16","Ohio","Columbus","900 E 5th Ave",1,3,"N/A","900 E 5th Ave ,  Columbus ,  Ohio","-82.9805225","39.9865015"
"346","28-Feb-16","Michigan","Detroit","8800 block of Livernois",0,5,"N/A","8800 block of Livernois ,  Detroit ,  Michigan","-83.1383732","42.359364"
"347","28-Feb-16","California","Riverside (Jurupa Valley)","5500 block of Etiwanda Avenue",1,3,"N/A","5500 block of Etiwanda Avenue ,  Riverside (Jurupa Valley) ,  California","NA","NA"
"348","27-Feb-16","Virginia","Woodbridge (Lake Ridge)","13051 Lashmere Ct",2,2,"N/A","13051 Lashmere Ct ,  Woodbridge (Lake Ridge) ,  Virginia","NA","NA"
"349","26-Feb-16","Washington","Belfair","300 block of Horseshoe Rd.",5,0,"N/A","300 block of Horseshoe Rd. ,  Belfair ,  Washington","-122.9313557","47.5041617"
"350","25-Feb-16","Kansas","Hesston","200 S Ridge Rd",4,14,"N/A","200 S Ridge Rd ,  Hesston ,  Kansas","NA","NA"
"351","23-Feb-16","Arizona","Glendale","4812 West Sunnyside Ave",5,0,"N/A","4812 West Sunnyside Ave ,  Glendale ,  Arizona","NA","NA"
"352","23-Feb-16","Florida","Daytona Beach","1042 Sheridan Road",0,4,"N/A","1042 Sheridan Road ,  Daytona Beach ,  Florida","-81.044772","29.209039"
"353","21-Feb-16","Missouri","Hazelwood","Interstate Highway 270 and North Lindbergh Boulevard",1,3,"N/A","Interstate Highway 270 and North Lindbergh Boulevard ,  Hazelwood ,  Missouri","NA","NA"
"354","21-Feb-16","Texas","Houston","5100 block of Idaho Street",0,5,"N/A","5100 block of Idaho Street ,  Houston ,  Texas","NA","NA"
"355","20-Feb-16","Florida","Tampa","2810 E. Bearss Ave",1,3,"N/A","2810 E. Bearss Ave ,  Tampa ,  Florida","-82.4281566","28.0810236"
"356","20-Feb-16","Michigan","Kalamazoo","5581 Cracker Barrel Blvd",6,2,"N/A","5581 Cracker Barrel Blvd ,  Kalamazoo ,  Michigan","-85.6747495","42.236494"
"357","20-Feb-16","Mississippi","Iuka","231 Co Rd 201",2,3,"N/A","231 Co Rd 201 ,  Iuka ,  Mississippi","-88.1405843","34.7542645"
"358","20-Feb-16","Alabama","Bessemer","200 block of Elm Street",1,3,"N/A","200 block of Elm Street ,  Bessemer ,  Alabama","-86.9760396","33.3733408"
"359","20-Feb-16","Florida","Orlando","446 S Parramore Ave",0,4,"N/A","446 S Parramore Ave ,  Orlando ,  Florida","-81.3892114","28.5366891"
"360","19-Feb-16","Missouri","Edgerton","4100 block of Buena Vista Road",4,0,"N/A","4100 block of Buena Vista Road ,  Edgerton ,  Missouri","NA","NA"
"361","19-Feb-16","California","Vallejo","509 Porter Street",1,3,"N/A","509 Porter Street ,  Vallejo ,  California","-122.2454921","38.0882818"
"362","14-Feb-16","Texas","Houston","8449 Gulf Freeway",1,3,"N/A","8449 Gulf Freeway ,  Houston ,  Texas","NA","NA"
"363","14-Feb-16","Alabama","Eutaw (Union)","Earnest Friday Road",0,5,"N/A","Earnest Friday Road ,  Eutaw (Union) ,  Alabama","-87.9097851","32.989047"
"364","13-Feb-16","Louisiana","Marrero","5425 Lapalco Boulevard",0,4,"N/A","5425 Lapalco Boulevard ,  Marrero ,  Louisiana","NA","NA"
"365","7-Feb-16","Mississippi","Pass Christian","Davis Avenue",2,4,"N/A","Davis Avenue ,  Pass Christian ,  Mississippi","-89.2446518","30.3225559"
"366","7-Feb-16","Florida","Orlando","7432 Universal Blvd",2,10,"N/A","7432 Universal Blvd ,  Orlando ,  Florida","-81.4650176","28.4552969"
"367","7-Feb-16","New York","Rochester","547 State St",1,7,"N/A","547 State St ,  Rochester ,  New York","NA","NA"
"368","7-Feb-16","Illinois","Chicago (Englewood)","6500 block of South Green Street",0,4,"N/A","6500 block of South Green Street ,  Chicago (Englewood) ,  Illinois","-87.6462721","41.7759371"
"369","6-Feb-16","California","Los Angeles","12800 block of Cook Street",1,3,"N/A","12800 block of Cook Street ,  Los Angeles ,  California","NA","NA"
"370","6-Feb-16","Florida","Apopka","10th Street",0,4,"N/A","10th Street ,  Apopka ,  Florida","-81.502032","28.665758"
"371","6-Feb-16","Florida","Tampa","8123 N Nebraska Ave",2,6,"N/A","8123 N Nebraska Ave ,  Tampa ,  Florida","-82.4510067","28.021886"
"372","3-Feb-16","District of Columbia","Washington","1500 block of Butler St. SE",0,4,"N/A","1500 block of Butler St. SE ,  Washington ,  District of Columbia","NA","NA"
"373","30-Jan-16","Arizona","Glendale","67th and Missouri Avenue",3,5,"N/A","67th and Missouri Avenue ,  Glendale ,  Arizona","NA","NA"
"374","27-Jan-16","Virginia","Chesapeake","1401 N. George Washington Hwy",6,0,"N/A","1401 N. George Washington Hwy ,  Chesapeake ,  Virginia","-76.3301928","36.7904881"
"375","26-Jan-16","Washington","Seattle","Airport Way S. and S. Atlantic St.",2,3,"N/A","Airport Way S. and S. Atlantic St. ,  Seattle ,  Washington","-122.3226381","47.5903084"
"376","25-Jan-16","California","Perris","140 S. D Street",1,4,"N/A","140 S. D Street ,  Perris ,  California","-117.2286849","33.7846868"
"377","23-Jan-16","California","Los Angeles","8105 Avalon Blvd",2,2,"N/A","8105 Avalon Blvd ,  Los Angeles ,  California","NA","NA"
"378","17-Jan-16","Virginia","Ware Neck (Gloucester Courthouse)","Ditchley Road and Gill Lane",1,3,"N/A","Ditchley Road and Gill Lane ,  Ware Neck (Gloucester Courthouse) ,  Virginia","-76.4373384","37.4000818"
"379","11-Jan-16","Delaware","Wilmington","900 block of Brown Street",1,4,"N/A","900 block of Brown Street ,  Wilmington ,  Delaware","NA","NA"
"380","8-Jan-16","District of Columbia","Washington","1700 East Capitol Street Northeast",0,4,"N/A","1700 East Capitol Street Northeast ,  Washington ,  District of Columbia","-76.9795263","38.8903247"
"381","8-Jan-16","Illinois","Chicago","1500 block of South Kedzie",1,4,"N/A","1500 block of South Kedzie ,  Chicago ,  Illinois","-87.705496","41.8609241"
"382","7-Jan-16","Tennessee","Memphis","3800 block of Kerwood Avenue",1,3,"N/A","3800 block of Kerwood Avenue ,  Memphis ,  Tennessee","-89.9362666","35.2336271"
"383","6-Jan-16","Florida","Lakeland","2312 East Magnolia Street",3,1,"N/A","2312 East Magnolia Street ,  Lakeland ,  Florida","-81.9133782","28.0505547"
